{"Italy":[{"id":3070,"uni":"Marche (Ancona)","city":"Ancona","lat":43.6158,"lng":13.5189,"kind":"public","language":"English","exam":"IMAT","lastScore":56.5},{"id":3068,"uni":"Bari","city":"Bari","lat":41.1171,"lng":16.8719,"kind":"public","language":"English","exam":"IMAT","lastScore":56},{"id":3059,"uni":"Bologna","city":"Bologna","lat":44.4949,"lng":11.3426,"kind":"public","language":"English","exam":"IMAT","lastScore":64.8},{"id":3071,"uni":"Cagliari","city":"Cagliari","lat":39.2238,"lng":9.1217,"kind":"public","language":"English","exam":"IMAT","lastScore":55},{"id":3067,"uni":"Luigi Vanvitelli","city":"Caserta","lat":41.0821,"lng":14.334,"kind":"public","language":"English","exam":"IMAT","lastScore":57.8},{"id":3069,"uni":"Catania","city":"Catania","lat":37.5079,"lng":15.083,"kind":"public","language":"English","exam":"IMAT","lastScore":55.3},{"id":3066,"uni":"Messina","city":"Messina","lat":38.1938,"lng":15.554,"kind":"public","language":"English","exam":"IMAT","lastScore":55.1},{"id":3063,"uni":"Bicocca","city":"Milan","lat":45.5196,"lng":9.2139,"kind":"public","language":"English","exam":"IMAT","lastScore":66.7},{"id":3057,"uni":"Milano Statale","city":"Milan","lat":45.4642,"lng":9.19,"kind":"public","language":"English","exam":"IMAT","lastScore":69.2},{"id":3064,"uni":"Federico II","city":"Naples","lat":40.8429,"lng":14.2494,"kind":"public","language":"English","exam":"IMAT","lastScore":61.4},{"id":3060,"uni":"Padova","city":"Padua","lat":45.4064,"lng":11.8768,"kind":"public","language":"English","exam":"IMAT","lastScore":63.2},{"id":3065,"uni":"Parma","city":"Parma","lat":44.8015,"lng":10.3279,"kind":"public","language":"English","exam":"IMAT","lastScore":57.8},{"id":3058,"uni":"Pavia","city":"Pavia","lat":45.1847,"lng":9.1582,"kind":"public","language":"English","exam":"IMAT","lastScore":59.1},{"id":3056,"uni":"La Sapienza","city":"Rome","lat":41.9028,"lng":12.4964,"kind":"public","language":"English","exam":"IMAT","lastScore":65.1},{"id":3073,"uni":"La Sapienza – Dentistry","city":"Rome","lat":41.9028,"lng":12.4964,"kind":"public","language":"English","exam":"IMAT","lastScore":61.8},{"id":3061,"uni":"Tor Vergata","city":"Rome","lat":41.8529,"lng":12.6002,"kind":"public","language":"English","exam":"IMAT","lastScore":59.5},{"id":3072,"uni":"Siena – Dentistry","city":"Siena","lat":43.3188,"lng":11.3308,"kind":"public","language":"English","exam":"IMAT","lastScore":56},{"id":3062,"uni":"Turin","city":"Turin","lat":45.0703,"lng":7.6869,"kind":"public","language":"English","exam":"IMAT","lastScore":59.5}]}